GPSTime,easting,northing,altitude,vel_east,vel_north,vel_up,roll,pitch,heading,angvel_z,angvel_y,angvel_x
1631664070081635,111.13501047496686,3.335444094771659,-0.027254853045151933,4.158983855481237,-5.926828687942258,0.03349830587415322,-1.581226923533087,-0.6590819620897911,-3.099034891992608,0.049771085477065456,0.1611351902275084,0.025387978562058117
1631664070231636,111.75761264831934,2.4416009708965696,-0.02232964688532063,4.1491565201620615,-5.988811996048359,0.041655123886373525,-1.578322455492506,-0.6377641161627617,-3.1035028890656173,-0.034035810520062056,0.12522001577397102,-0.011264188947721769
1631664070281637,111.96523789177344,2.1418317471383626,-0.019830037801911324,4.149222279661772,-6.001236358380428,0.05391959709119442,-1.5787798056345346,-0.6320094802294719,-3.102884351917484,0.00430537399210506,0.10562473307144114,-0.019852721083978734
1631664070431638,112.58315109249145,1.2377418220396628,-0.009354082049202184,4.086353861342326,-6.042772950201294,0.0662876625515648,-1.580715511482579,-0.6180170359771061,-3.0990716859824063,-0.0030773081852954066,0.0774760754283448,-0.013541994518183737
1631664070531639,112.98962361583055,0.6321969634806051,-0.0029093087677480173,4.046783579432232,-6.064872265299884,0.056018001367779034,-1.5795560997519096,-0.6110869719171116,-3.098388479164698,-0.006456457601967933,0.06176967048136803,0.017110829335992114
1631664070631640,113.39340842065324,0.024543580511043994,0.0021771474041890754,4.036772088791351,-6.086299102604925,0.04822614641839924,-1.5769565942117136,-0.6056506023296607,-3.099305526266342,-0.0024065760705303243,0.045940680656402,0.012479020092443657
1631664070731640,113.79830558513817,-0.585095331882384,0.00778026891563427,4.068500442560072,-6.1030785606628175,0.06683656997351156,-1.5755670885295134,-0.6017874081183948,-3.0982394381275515,-0.039390368963946584,0.03043540715427295,0.010871499405364506
1631664070831641,114.20757602812677,-1.1949954576264317,0.014704881541882084,4.116128656249361,-6.098769568247111,0.06858961191855768,-1.575735331041721,-0.5995971551896407,-3.09377604343319,-0.04746333440622382,0.014771968811121642,-0.011457478164416755
1631664070931642,114.62027817171024,-1.805705031267915,0.021072670552536005,4.130891561356504,-6.115713748651796,0.049833492017145986,-1.5774339629036558,-0.5985012876523117,-3.087250009241025,-0.05994070819752653,-0.0007987131681980259,-0.026630977944161
1631664071031644,115.0324064218919,-2.4195250354192597,0.025637820067274372,4.1091333374944305,-6.159701199571739,0.04432959047817628,-1.579834039117522,-0.598050440434949,-3.0823143524322134,-0.02586992770608543,0.004212120570502724,-0.012507767679468682
1631664071131645,115.44316243580003,-3.036114867945257,0.02925798161251783,4.109432675419391,-6.169569512697136,0.03512964329439712,-1.5824182198070869,-0.5987350700846569,-3.079907581157269,0.006728278863232521,-0.01531910366870143,-0.022613978628665477
1631664071231646,115.85508845141014,-3.6526335695993737,0.03248024503042629,4.137454062274045,-6.157907315962421,0.027534220864538897,-1.5847704557341715,-0.6002220717002137,-3.078596525405863,0.005816175552528418,-0.017109699702596102,-0.008931164595485458
1631664071281646,116.06223082719814,-3.9604335235765102,0.0334107745290349,4.147072507811333,-6.15708599215552,0.014992555077884015,-1.5857654683301117,-0.6010313611871186,-3.0777983378754703,-0.036050592497578464,-0.01797372757639741,-0.016057837886011766
1631664071431647,116.686172240673,-4.883719529911129,0.03302712446151844,4.170463578875285,-6.1541973835276815,0.0004348095747897357,-1.5892539760553372,-0.6034149237095245,-3.0737370164423483,-0.018334562482268318,-0.02508272267276001,-0.0022649618225617013
1631664071531648,117.10194813462493,-5.499240487112185,0.03261585966121128,4.147097540515071,-6.158936406166829,-0.0019254058690952,-1.591022811715982,-0.6053513925559276,-3.0727563079258524,0.006112949457312316,-0.018859497971204495,-0.013315625067229324
1631664071631649,117.51660896969132,-6.114716964413716,0.03208425762390582,4.146999865818839,-6.149865279043981,-0.005270473936085289,-1.5922306468942267,-0.6069388775587364,-3.0727389305091974,-0.01352772441119456,-0.016675800802315753,0.0054825565358614225
1631664071731650,117.93106806851894,-6.729093256495717,0.030347175348778746,4.1460585131880245,-6.138088676906368,-0.023391082515857912,-1.5921846839254983,-0.6080974992698805,-3.0737232722624688,0.021946266266814483,-0.00889832422577831,0.003006683641263433
1631664071831650,118.34610587307003,-7.342417381893676,0.028017042267715994,4.155663594279368,-6.134841441592964,-0.02040534674999891,-1.5921698072695154,-0.6086377586272547,-3.0741822688689724,-0.0018062825013646846,-0.003491482476999903,-0.0007350706055138835
1631664071931651,118.76148617211096,-7.956670593199009,0.025274854232575292,4.147096345331249,-6.151192973653753,-0.03628366018091084,-1.5938015995122796,-0.6090265338272987,-3.07319890792656,-0.0004205083250233073,-0.006157900204785469,-0.024559908816465092
1631664072031652,119.17611910806693,-8.570948693226828,0.021397636967485312,4.146755652747043,-6.125572275396142,-0.03631145668783121,-1.5967895199937843,-0.6094378971624614,-3.072998131495815,0.0031655567700357903,-0.006348541807984572,-0.020423650608225662
1631664072131653,119.59102553171007,-9.18189457603707,0.018795931673100466,4.1488489928401355,-6.095083034367829,-0.013918510776852858,-1.5970340118178388,-0.6101929788467428,-3.0730775841673528,0.010256175084912453,-0.009010523451710543,0.016500017603745382
1631664072231654,120.00465636188726,-9.789826666229224,0.01675111592028898,4.12608890707865,-6.06566205607824,-0.02446756756938194,-1.596165490011872,-0.6111282647246353,-3.074457008350376,0.014232200748572272,-0.013907086452180703,0.013552435820795343
1631664072281654,120.2104535918216,-10.093026294290675,0.015124202961808483,4.106241724196137,-6.064929157689553,-0.03408226456386643,-1.595321467578927,-0.6119436659543728,-3.0753316801707937,0.014742735207507655,-0.010965471767789985,0.02233169952425161
1631664072431655,120.82798505593728,-10.999282959999727,0.007565041107435777,4.140001380716925,-6.007813862439509,-0.0590291408812539,-1.5956109161857186,-0.6162602476635894,-3.080537275764425,0.0017837224621589393,-0.03269631925136075,-0.02964631991803909
1631664072531656,121.24508083023295,-11.595598229491705,0.00207011905283859,4.191927026772975,-5.910999144851515,-0.05523198424499269,-1.600209044566999,-0.6203258687222066,-3.077552578806862,-0.020270263126043336,-0.052370550398944886,-0.04411154767801753
1631664072631657,121.66398598504959,-12.180218739087245,-0.004017555569759496,4.180178280295737,-5.774746534513359,-0.07144085237920836,-1.6065795866505428,-0.6256957337347869,-3.0716334058291435,-0.02856669309841476,-0.0715257548925253,-0.05129548996483618
1631664072731658,122.07861069766919,-12.751405762456852,-0.010470809246159993,4.101811099575631,-5.643389271743588,-0.06839121149449755,-1.6099218733615053,-0.6322014227575103,-3.0681640775469488,0.004768780412277114,-0.06498320049958756,-0.01079826246663676
1631664072831659,122.4852137602292,-13.308221734616554,-0.015832746846033585,4.028643186939924,-5.490788596137296,-0.04439557010308361,-1.6077658623649649,-0.6394090296948445,-3.0704950976358827,0.005185178088110857,-0.07325079562811675,0.04228410820688929
1631664072931660,122.88539705505941,-13.848912308065433,-0.019778439852392762,3.9801572592974876,-5.325304032177395,-0.04130890964367183,-1.6016407044998868,-0.647483978270551,-3.076454714886625,0.004359943785655571,-0.08194639774135441,0.0476541976397847
1631664073031660,123.28511826911435,-14.373123362321705,-0.024376069430748548,4.00721867300579,-5.166666468239964,-0.041238310973510925,-1.597427630837154,-0.6563082889400823,-3.07967851248275,-0.06924974176204278,-0.08594739881162375,0.03754060936735925
1631664073131661,123.68451515998038,-14.881787143581478,-0.0290167743669318,3.957900534714319,-5.008043177944364,-0.04700613030510145,-1.5981369014669644,-0.6653202897940022,-3.0778659591752047,-0.01475824598219661,-0.08957482729654587,-0.0448261512755496
1631664073231662,124.07797559838264,-15.374175418846946,-0.030057782542077097,3.904768960939164,-4.8368535355160045,0.015025270350341747,-1.600308277150534,-0.6743134922299413,-3.0756085533201314,-0.012223801091077771,-0.09221507512172036,0.010972604688588058
1631664073281663,124.27177813968372,-15.613603803869196,-0.030234110236788597,3.8508925556006397,-4.747361755242699,0.0034105803620541894,-1.6026381934723215,-0.6785752847002838,-3.0732032649856516,-0.005272375147338311,-0.08121510421722858,-0.01853066853216412
1631664073431664,124.83634286467984,-16.304293390153546,-0.032020369867134496,3.6703262616996,-4.450082610778985,-0.02466674444131922,-1.6065378466185667,-0.6905966469494952,-3.072251584625485,0.0039556274624815355,-0.07389757068122521,0.020475759337613825
1631664073531665,125.19702210810598,-16.73840545210745,-0.035379131460838265,3.5488086260741403,-4.230476449469779,-0.03666546383869606,-1.6051769517979253,-0.6982148746909743,-3.0751097266345115,0.0008520907045147146,-0.08112713652723734,2.56830467685413e-05
1631664073631665,125.54735897873192,-17.149916026449922,-0.037950189157244296,3.456135566755017,-3.998545826314947,-0.0102582729224971,-1.6047780064947887,-0.7062351872225012,-3.074321719835055,-0.028882356286077538,-0.07726442224272646,0.01750430762076654
1631664073731666,125.88695338951499,-17.53747766127957,-0.03931287590418042,3.3309119828477285,-3.7500157643501226,-0.012031872092539473,-1.6052435414988948,-0.7132819324945113,-3.071817816257653,-0.01422198988544365,-0.06817939474785889,0.0019167220453531815
1631664073781667,126.0515060239379,-17.722018235886104,-0.03970638598798998,3.250847036140537,-3.6293014988191636,-0.006808943321165761,-1.6049789941587564,-0.7165411677434941,-3.0708552821464044,-0.022452009772943104,-0.06768676409602581,0.007969845671572013
1631664073931668,126.51673838393525,-18.24242416546929,-0.03860987648049875,2.934050706885807,-3.3152565464933046,0.017478312520798178,-1.6019806965565937,-0.7267229457323867,-3.0713465366812307,0.018780837269385755,-0.0671829539384096,0.02629072133975969
1631664073981668,126.6608722176989,-18.405597332705288,-0.03751244855925091,2.8301492575350653,-3.2091676468639165,0.02236983498389558,-1.600291798073716,-0.7303381262698059,-3.0735374625140737,0.04525569411689587,-0.0689446599425647,0.02977297135613698
1631664074131670,127.06425379814243,-18.86102406625659,-0.03413259759050466,2.5713508247898127,-2.85039031065195,0.022746973236071118,-1.5950278331518755,-0.7393790869964132,-3.0825006231251346,0.0009768066851893386,-0.044037187121229504,0.03642696099280019
1631664074231670,127.31483995563897,-19.1330833224734,-0.032590989599273854,2.435569283323313,-2.6014958379504587,0.0120977909372474,-1.5912874722099184,-0.7439924524721767,-3.085160205627401,-0.01627898627649719,-0.04310939828546767,0.024582335367025084
1631664074331671,127.55170564604423,-19.382313042895127,-0.03139850407300668,2.2975824833330925,-2.3942951150640552,0.010647697795809295,-1.5887301857223568,-0.748729565769214,-3.0852169661842885,-0.02810841623165944,-0.044123466719418136,0.015225329104479435
1631664074381672,127.66498912595625,-19.499707819037774,-0.030658011642201083,2.2320725353244413,-2.3045001771389653,0.0183294680595678,-1.5877287151017874,-0.7511994490833155,-3.0845540472668995,-0.027037490102140318,-0.05153609172306868,0.01828606621414076
1631664074531673,127.98129352199771,-19.828313170667315,-0.027656115319307215,1.9856337324680882,-2.077255474771876,0.017987821909501097,-1.5875817022325334,-0.7574591179683031,-3.0826359161267516,-0.0004020985816256332,-0.03633120187421515,-0.007767192935514152
1631664074631674,128.17187960721935,-20.027435852058513,-0.02623351879169876,1.8230645216987562,-1.9020472388655287,0.010847817112559565,-1.5896405866178447,-0.7611219962981454,-3.0811795314564634,-0.011875763744802708,-0.03676398333465946,-0.01860372761029219
1631664074681674,128.2610615065597,-20.120208205871865,-0.025543267412119125,1.7436433947380658,-1.8082717342833705,0.012833138174277739,-1.5906943396706295,-0.7629451687921057,-3.0804510627992343,-0.003189097224730649,-0.04017065115398705,-0.014251230662527647
1631664074831675,128.50535961330135,-20.37101415382818,-0.023940252667414674,1.5160927629542702,-1.5352682105807618,0.004783928514016064,-1.5933058915304221,-0.7680667622986567,-3.078291263928819,-0.01502652027340481,-0.03294168270841691,-0.010619052772156086
1631664074931676,128.64905322318918,-20.515462892717725,-0.02363840180500333,1.3503378360631328,-1.3583994930076597,0.0020579133647399598,-1.5951960116758495,-0.770879963618751,-3.0756199359704683,-0.013041190982278763,-0.018011387538062893,-0.014705514421602376
1631664075031677,128.776388997397,-20.643028272741006,-0.02288301920230472,1.1983717109967857,-1.2049839896599264,0.011804913809369549,-1.5964059444831922,-0.7733148620428107,-3.0742886387507236,0.0006047408266639053,-0.029066728368841586,0.0020225794399306813
1631664075131678,128.89039383521882,-20.759826043468284,-0.02134694208056659,1.0965104509906647,-1.1493482197914315,0.01650978830818887,-1.5945678215924743,-0.7760145435197984,-3.076230306369456,0.004035449966059666,-0.03149457212904802,0.022823877445419714
1631664075231679,128.99680645693203,-20.875778677772374,-0.018967377246868214,1.0401688210849538,-1.1699341193987827,0.03838916043442452,-1.5900903997039721,-0.7791448541031304,-3.0835034969254753,0.07086254098933586,-0.02447890556201398,0.05163299230509081
1631664075281679,129.04827146843633,-20.934191476323328,-0.017504416709321097,1.0310411486759743,-1.1665226908743473,0.0388707793382924,-1.5882132860330997,-0.7801017748041917,-3.0879279562420696,0.045051451205410604,-0.015949568657246872,0.0382017197451959
1631664075381680,129.1529474349648,-21.050287039795162,-0.013953750555996888,1.0706257762605353,-1.1548214787419886,0.025172012978737043,-1.5842991368542574,-0.7808718375127799,-3.0944007307739794,0.019338584270155355,-0.0012138001959990795,0.011478270733898791
1631664075481681,129.26380799564123,-21.164244100411985,-0.012047003981342383,1.1469967674685149,-1.1230496385962645,0.013238462979021511,-1.583687632320643,-0.7818630813207544,-3.095913541519087,-0.00684879146539321,-0.01768500197213116,-0.0005544630096867957
1631664075631682,129.44386717775117,-21.33008533855942,-0.012454237760185408,1.2411322927541635,-1.106541820366763,-0.01670661315429147,-1.5867515927092277,-0.7851217835425018,-3.0874910393758004,-0.06648062269396914,-0.013967121851477063,-0.01531209286446161
1631664075731683,129.5681388405374,-21.44166377837135,-0.01466639135834083,1.2338894105076046,-1.128242251589864,-0.01605729104280995,-1.5895425572308164,-0.7862891442992255,-3.0798137211744865,-0.04615538026634644,-0.017696175289834925,-0.011236261695656374
1631664075831684,129.68966522352412,-21.55720377921877,-0.014862040391054612,1.1983259335283238,-1.1876874038751013,0.011002451962672804,-1.5886950809394544,-0.7879950921577709,-3.0781382177067163,-0.0005092396947753594,-0.02047991127130185,0.02450731813076348
1631664075931684,129.80842903408637,-21.679886028886035,-0.013418506574899833,1.1908173944707106,-1.2642013137727974,0.01594240553566969,-1.5850205741173982,-0.7902065526322705,-3.0829116657330964,0.04629238261908495,-0.018818388576344325,0.02951045073975403
1631664076031686,129.92996929594102,-21.8101844014237,-0.011342114761493854,1.2556431539667354,-1.3362957659690455,0.021281768659597692,-1.579635109084489,-0.7914100589843855,-3.0906239209093123,0.036176758995597774,-0.01028980345929436,0.04120308058853229
1631664076131687,130.0608960161377,-21.947515228298496,-0.009656814663554572,1.374659578294579,-1.4084639893361188,0.011864586784600869,-1.574700456679688,-0.7919998209858383,-3.0970393164008865,0.0077795032631917255,-0.006519483118045102,0.027720616696191795
1631664076231688,130.20606794671514,-22.091998452550094,-0.008857172919651074,1.5276012881756247,-1.485493148007822,0.004698877059617752,-1.571370244391888,-0.7930997533687559,-3.099108988650053,-0.01749289078262634,-0.009442947977998009,0.020524963007361015
1631664076331689,130.36595950258314,-22.244973662701675,-0.008898734225376362,1.6636951880961284,-1.5799883036857463,-0.00465688011681914,-1.5694878781123773,-0.7942133558657584,-3.097755411907566,-0.031096749654012792,-0.009525070377864975,0.0061593963863966145
1631664076431690,130.5376199646718,-22.409197753479543,-0.008861246850492,1.7648087705476083,-1.7061757420505352,0.004045786642938243,-1.5683305407116375,-0.7949500456033668,-3.0958302353108027,-0.024188257024527333,-0.010190920611914279,0.004908940241676876
1631664076531690,130.7176633312483,-22.586860859579556,-0.007939527835233384,1.827708803844415,-1.8520099802947958,0.011965496941563061,-1.5680052369328026,-0.7959696363391663,-3.0950824740665714,0.0006133909708814551,-0.01406127976952789,-0.0008007863057387548
1631664076631691,130.9035340946953,-22.779629421650117,-0.005548888931499324,1.8974552606655466,-1.9968876207240627,0.03277386399394308,-1.5684030666547693,-0.7979564017982297,-3.0988161678332173,0.04303383644166997,-0.022769680477584958,-0.009485825198267524
1631664076681692,130.99979040461542,-22.88075706529584,-0.003873126405777222,1.9587558710832045,-2.0410914014746977,0.03402599929092385,-1.569329010713167,-0.7988788236886283,-3.1000660965341136,0.04867358626218156,-0.019046650520480466,-0.008324009338667298
1631664076831693,131.30858589791947,-23.192451005333776,-0.0011943514549102585,2.166958335623402,-2.0994806382428033,0.001170696301124775,-1.5688603223093862,-0.7993898688450344,-3.102643943312168,-0.026864849674315346,0.004928594788968613,0.020930780848888518
1631664076931694,131.53234821000268,-23.405055361675444,-0.0014953360696319806,2.3013353319732124,-2.172256712183122,0.019812265254473917,-1.5667891693573373,-0.799641751218138,-3.100260661110901,-0.053082000497854796,-0.008615315991039693,0.031307043780237256
1631664077031694,131.76659067845912,-23.628510837285294,-4.4938215998505116e-05,2.3753082745400733,-2.308882507952532,0.022942626766667258,-1.5672840067578953,-0.8010365031357037,-3.096025934761349,-0.022301606505538963,-0.013272634115190259,-0.018289797739237685
1631664077131695,132.00702574063192,-23.866921548565205,0.00321232722701828,2.4356850451810734,-2.4521856704762586,0.0433343924497376,-1.5697923476608935,-0.8020771706707023,-3.0946679628021725,0.014342404573807036,-0.008842343716486688,-0.0063842244538533065
1631664077231696,132.25376835512338,-24.11714940160651,0.006613056335739997,2.5036404078401335,-2.543827892374883,0.02428001960929607,-1.5724152387555785,-0.8023577962929609,-3.0953908559839736,0.029459434870595932,-0.0033084378436362763,-0.027637275178717446
1631664077281696,132.38006948012813,-24.245278682298867,0.007985225982454075,2.5487333343451044,-2.5763003652639025,0.0213479340689735,-1.573724837774862,-0.8024774595635904,-3.0958879915571154,0.0257215989931724,-0.007768763522086659,-0.02300670499056612
1631664077431698,132.7715280590131,-24.637313837196352,0.009737638401143889,2.6706759970127116,-2.6395855305917055,-0.003015377592697422,-1.5786769464751496,-0.8032293536953679,-3.09459633912177,0.008944359657740873,-0.011516288923770929,-0.026724369449352577
1631664077531699,133.04225220408665,-24.903323510638923,0.009598119943917682,2.7422478841652533,-2.683336159812495,0.0009061003886784818,-1.5808402741146723,-0.804026506341866,-3.0925856868991395,-0.003987376221510963,-0.008368273534533429,-0.004226012183226205
1631664077631699,133.31858525528926,-25.17541057427786,0.009164613832109009,2.7815599945400216,-2.7645723227884944,-0.004832178120538434,-1.5831273548733182,-0.8045513070262792,-3.0913027194532146,0.017659801488561683,-0.006522736651104939,-0.022491521613497326
1631664077731700,133.59787532841284,-25.45658045231554,0.009075513621583195,2.805270026368347,-2.848051751893341,0.004656812592713973,-1.5863989616484238,-0.8048258741000722,-3.0920228665666554,0.048887477949978844,-0.005888832919668019,-0.020867486634538922
1631664077781701,133.73844242948618,-25.599433844136684,0.009585463096502295,2.8192838963529514,-2.8622776793287197,0.017480396302064227,-1.587700249728348,-0.804985335036445,-3.093432612291157,0.037789338801474955,-0.004605731984954098,-0.012531821890007988
1631664077931702,134.16578376638398,-26.027229441393526,0.016418812146273387,2.8947154050781942,-2.817338393470229,0.06879901538485626,-1.5842129299603263,-0.8057834845959514,-3.0993731449742405,0.013992013123399507,-0.0114115298667672,0.04682848436597437
1631664078031703,134.45906482577425,-26.3075420757416,0.023093123486335576,2.9720277253917957,-2.8063322500105805,0.05305807276796238,-1.5769512758577557,-0.8070796535781656,-3.1004318043313157,-0.05348539113868549,-0.014896511718537562,0.047371173398722564
1631664078081703,134.60839083112467,-26.448669551001206,0.025345487229956845,2.998710254380165,-2.8409837994007354,0.030384877779766385,-1.5734332732134164,-0.8076863845371055,-3.1010689099235353,-0.02296384785278828,-0.004605607392603506,0.039392525455022045
1631664078181704,134.91110347033333,-26.73669746060544,0.02647285879295949,3.049216164929601,-2.9254470672194435,-0.005216121085270519,-1.5692379356091215,-0.8086534776557156,-3.1015043825813793,-0.023270032467386292,-0.008525384630930506,0.020005773305732253
1631664078281705,135.21738481105388,-27.034738470427246,0.025117675941154896,3.070012717869807,-3.039856485447741,-0.026616224458260573,-1.5671733405380648,-0.8096944650545823,-3.1020843244787506,0.002888073547739736,-0.011527675123581889,-0.0004064652418074346
1631664078431706,135.6832164767051,-27.50150355477212,0.02311120227573371,3.1634723696492646,-3.1668508802303306,0.01056570502874197,-1.568898166903851,-0.812214750013008,-3.1062957264948023,0.041414568439844625,-0.01681714402301272,-0.03033529471184003
1631664078531707,136.00479011792305,-27.820754876116478,0.026286553591639936,3.2772282962398096,-3.2048886733344135,0.050482435878373956,-1.5760645066113468,-0.813038483105689,-3.104587400360763,0.02376278674886991,-0.0062613125238902305,-0.068515508782626
1631664078631708,136.3382623423703,-28.141386100468427,0.03122438786560218,3.3783178542084387,-3.2110621558808625,0.0394054659971021,-1.5878409285964716,-0.8124852734009131,-3.0944775578005266,-0.04456153945578543,0.011733217954689594,-0.07761977349171505
1631664078731709,136.67805259790416,-28.463096339048757,0.03348963483840389,3.4009014908861315,-3.2314523121585026,0.005639260319056569,-1.5957200239492666,-0.8124042533540464,-3.0860975229244643,-0.01330884059064207,-0.0038689528118753913,-0.03131900917165756
1631664078831709,137.01800550531746,-28.78862877795447,0.03298054486119127,3.3917034316924295,-3.292472790975682,-0.015897405143525275,-1.5971633813374198,-0.8132398322797467,-3.0831092312327426,-0.00784909766947445,-0.007028938173020555,0.0071921385640673074
1631664078931710,137.35731847995154,-29.122248274421867,0.030731269000533357,3.405834063189062,-3.371969564185766,-0.02940829146816639,-1.5945914386045978,-0.8139829348313143,-3.088813258257438,0.04492328672171403,-0.00823694377880857,0.016856757981015318
1631664079031711,137.70110789420838,-29.462157919279203,0.02805885969148454,3.4731620951690005,-3.4234294603064885,-0.029003485178277926,-1.5918855544103614,-0.8146959952198963,-3.0934580521711372,0.02618281572070114,-0.006281583213510519,0.01398281495399894
1631664079131712,138.05245444870448,-29.806721147417637,0.02505650461035948,3.5577878891072015,-3.4609759007183,-0.036788016126759276,-1.59012687578653,-0.8154077527005422,-3.097120246049223,0.02504119247904988,-0.009610785663764056,0.006648991174649772
1631664079231713,138.41213813351754,-30.15493016961341,0.02154325342906302,3.6378519090463257,-3.503114320169628,-0.03150534473075984,-1.588584762105989,-0.8158762481306701,-3.098955972478841,0.015633407286347226,-0.0025731068355529167,0.006013588293223128
1631664079331713,138.77988719274168,-30.507508933320945,0.019340071851467244,3.7182459477703227,-3.5473247850415475,-0.008218301979749052,-1.5892127730933805,-0.816801845080531,-3.0978118254077533,0.007045173693133595,-0.013872726564380777,0.00027893197498030645
1631664079431714,139.1542583889705,-30.865356681778547,0.018684403396854066,3.7711289017938543,-3.605451425083567,-0.008604993866229864,-1.5902388142362542,-0.8181853204697829,-3.0963906105992764,0.014094003077901993,-0.015854883108368866,-0.013722988799260424
1631664079481715,139.34324834638247,-31.04638792344563,0.01824939005501726,3.789391048552891,-3.633695244057082,-0.008200837792337438,-1.5912260077668503,-0.8187963015958082,-3.0953581081170456,-0.00566219437810309,-0.0071802749694887015,-0.010117734214018086
1631664079581715,139.7242133224964,-31.410862884202373,0.0169359916192469,3.8262253364962766,-3.654595373232668,-0.013592291072461403,-1.5931753868887653,-0.8198195388320942,-3.093903639951212,-0.0035490594068066103,-0.0145155205794992,-0.008375707377059512
1631664079681716,140.10780060534557,-31.777302445518544,0.015391433501511814,3.8469721003128368,-3.6723656946995895,-0.018665748541182203,-1.593715682473577,-0.820679558654674,-3.0934539833820103,0.009634549922661675,-0.006831632241492647,0.0020778339899768412
1631664079831717,140.68737582995297,-32.33039891111622,0.012343308487607993,3.886960400596906,-3.6964627100004157,-0.017625913445329416,-1.5932723531080557,-0.8226748718050232,-3.094820741555357,0.0005963017399081572,-0.02069097151754721,0.0056061040560221
1631664079931718,141.07783798693993,-32.700020649706694,0.010553444384288,3.9244634289674107,-3.6894744208713393,-0.015374581971172752,-1.592857608126613,-0.8237931868996522,-3.0945746702081554,-0.014864981597312518,-0.009097845577081404,0.00568584597538105
1631664080031719,141.4723460738387,-33.06818653351538,0.009429712069956492,3.9618159661329977,-3.6769115868918645,0.00012295691048505063,-1.5920122390929332,-0.824682330023133,-3.092810799270595,-0.04439070263804171,-0.013202440490327582,0.012164363784538562
1631664080131720,141.86881606364628,-33.43630958855483,0.009576915163901425,3.9629490011426594,-3.6920241048829614,0.00850244863547698,-1.5917283565178546,-0.8261936785655097,-3.0908097239054944,-0.011389903554541713,-0.015874803350030744,0.006985840671263786
1631664080231721,142.2641527410527,-33.806262851188706,0.009791103460906128,3.941350731156383,-3.706798477741673,0.004381245481831872,-1.5918446236222752,-0.8281033433789128,-3.0904161908245413,-0.005262136149714011,-0.026041602468383968,0.00694415335561393
1631664080281721,142.46066379959052,-33.991691687785924,0.009964233462025365,3.9216284930872893,-3.7050012871543125,0.0034409143233886785,-1.5914415844574932,-0.8291866819475572,-3.091274336109125,0.03015448294216184,-0.023709338009386526,0.007176682406362445
1631664080431723,143.04698460771715,-34.544151460032104,0.01198267060222137,3.9037051616119247,-3.6499833581702754,0.01757726207140718,-1.58763116236288,-0.8328130931211828,-3.097180614532195,0.012174299050006212,-0.024931623450126165,0.015952279803625426
1631664080531723,143.43784401267555,-34.906569214190604,0.014566748717970063,3.914374149145541,-3.5942597732613466,0.03078474286511349,-1.5846376989691826,-0.8358851534339232,-3.1012134929338218,0.021858009482151997,-0.03656019605389078,0.01822492739284064
1631664080631724,143.830179260323,-35.26252152429538,0.01789435799266295,3.932019363054766,-3.5229717849447897,0.026109098068359916,-1.582452543261651,-0.8408268998333899,-3.1033084603785825,0.003192124410423179,-0.06161556125983691,0.008611395229535204
1631664080731725,144.22452080709434,-35.61176715092446,0.01991630732469306,3.9557761264603344,-3.4623592746213685,0.008570724563416305,-1.5815137619160324,-0.8485322550576772,-3.1042097442195096,0.019811622626095454,-0.09432536720670975,-0.0030421775404312103
1631664080781725,144.4225468631436,-35.78410920615017,0.020205123323586774,3.968773411005695,-3.4274081069393456,0.009266512306988836,-1.582748026138696,-0.8535366230053353,-3.1044801852554,0.022078250639813363,-0.1110342402534904,-0.012660720672726073
1631664080931727,145.02027265875498,-36.285160662667955,0.022942165572369305,3.9938484864818964,-3.235946602419985,0.028589491985490656,-1.588680549422299,-0.8747011132980912,-3.1040388317577365,0.03958304031744783,-0.1754259059880898,-0.01951360073497748
1631664081031729,145.420939098336,-36.60029948491547,0.026932649587314186,4.021114066801497,-3.0659208793838078,0.04900391654965772,-1.5906773790675528,-0.8936820636008651,-3.104230396539578,0.004346493629364013,-0.19341356567883208,0.005733738785804366
1631664081131729,145.82479639533452,-36.8977661002382,0.03117573881770605,4.05327463310851,-2.8877565586933645,0.031548689285174646,-1.591003846792769,-0.9138917540295426,-3.103462012225199,-0.009788820185103875,-0.2050601609505907,0.00533260808999868
1631664081231730,146.23080159768082,-37.178450900739946,0.0330165711380488,4.064252592072154,-2.7272991674695755,0.0067269018578023365,-1.5905415560749077,-0.934495361509565,-3.102342300695514,-0.02376824658127144,-0.21520578352496875,0.02193812241085815
1631664081331731,146.63725044140529,-37.44405713726873,0.032478762998490715,4.063286465279529,-2.592194579766613,-0.015161986953571792,-1.5887384592923048,-0.9574921718986282,-3.10238937606176,-0.013391251220525303,-0.23795531714205875,0.007644560166367814
1631664081431732,147.04471032966617,-37.696084969076615,0.03140677761072079,4.082850809993307,-2.449417287463643,-0.007781812967802965,-1.5904768200700152,-0.983226308415266,-3.1010049097985677,0.0009495287455840787,-0.2689566484556455,-0.015666778731901733
1631664081531733,147.4539431675111,-37.933081415502585,0.03164380311083538,4.100549313346326,-2.283094647185758,0.0065615625298699526,-1.596282149928411,-1.011417994385589,-3.0977483894895452,0.03308293359233349,-0.2990588838330554,-0.026748690174090258
1631664081631733,147.8641987535732,-38.15135536714692,0.032805119098871335,4.105426612792082,-2.069871225651802,0.013484227617087622,-1.6036648232573003,-1.0423204771473744,-3.0942267720296828,0.02109131215165463,-0.32678728411581526,-0.017428580742310358
1631664081731734,148.27474115595314,-38.345617662570675,0.03399694207249555,4.1043981904089115,-1.8120753933585343,0.004985369801817739,-1.6085845185680674,-1.076676067680436,-3.0909413287035092,0.002132204571526791,-0.3610347873004394,-0.003679354545530267
1631664081831735,148.68547640206768,-38.513392989580105,0.03420380244995577,4.113257377835155,-1.5341170983926196,-0.0005006945829200281,-1.612013544554929,-1.1137685399143822,-3.0872762576405055,-0.030305101351433213,-0.3858870318203521,0.0077772353882291515
1631664081931736,149.09710499601724,-38.65375339111358,0.033426466466012925,4.117354280155742,-1.2801843029855229,-0.0206451253126684,-1.6152337583870087,-1.1536203699977026,-3.0795578871672706,-0.03479133737398475,-0.4136220942754662,0.006713915768942475
1631664082031737,149.50809542178246,-38.77050333967242,0.030192643205764105,4.099357298423956,-1.0550751611935503,-0.03240519810661548,-1.6223858403632672,-1.1960863566183069,-3.0687356064007827,-0.048295564338245806,-0.43738612928078574,0.00840675681447352
1631664082081737,149.7125553709823,-38.82031791942532,0.028266100100312858,4.0789888611004175,-0.9394595608366625,-0.03490781331140868,-1.6271623231980625,-1.218371496096409,-3.0622915710285152,-0.02855728273190803,-0.45607387315746767,0.006794812421984236
1631664082181738,150.11769453734297,-38.90361616948803,0.024887222711124243,4.0249180507933895,-0.7254177816527949,-0.027532909716840893,-1.637102971977798,-1.265141542507471,-3.051039199779026,-0.0022917702844084628,-0.4822359421862838,0.014263107779493227
1631664082281739,150.51824927390177,-38.96591129900222,0.022928445620414337,3.9946662563635322,-0.5163826808374589,-0.00958784908728319,-1.650019052531672,-1.3138863016403641,-3.038946002945152,0.009598995476288626,-0.4986891045107512,0.010228866175174368
1631664082381740,150.91716424722267,-39.00634934233893,0.02197304253728137,3.9859446565218644,-0.2800064633505413,-0.0074239889578624745,-1.6723764281244649,-1.3636923956829394,-3.017558928127704,-0.0025170402819717744,-0.5074284243767433,0.0047558786168004534
1631664082531741,151.51326467190862,-39.022451913774724,0.019527547320824817,3.9554917248300576,0.0646314036399315,-0.03263393184917338,-1.740846950936257,-1.4380248123340078,-2.9484981120566545,-0.01199136424052831,-0.5040231503717345,-0.00024139575727275117
1631664082631742,151.90700473832297,-39.00342425494771,0.015051589741087806,3.9148733647420713,0.3120019625379823,-0.055881907643098985,-1.8631523051468664,-1.4893126621147488,-2.825681744600397,-0.0057924252218083,-0.5517612549057884,0.006321602385985966
1631664082731742,152.29529050147687,-38.960615997270935,0.008080985591272308,3.850157571791046,0.5496603573346889,-0.07381060096647402,-2.4156349201703073,-1.5380847037606773,-2.273538683353298,-0.006679823465452599,-0.5755331199372256,0.010152477123122403
1631664082781743,152.4869103096288,-38.93021700039853,0.0042806462760267144,3.814857498980476,0.6670898364725443,-0.07600051680512618,2.8653257428584795,-1.545187045491985,-1.2714677033944954,-0.009342518172206953,-0.5755428894957167,0.010113506786720789
1631664082931744,153.05214024642547,-38.80826840372983,-0.006591293164212905,3.719302425372753,0.948719230465604,-0.061410333635313154,1.8334650361832745,-1.4741168224649466,-0.24205781783596175,0.03797753087499027,-0.579922321557834,0.011633967255945555
1631664083031745,153.4198575522817,-38.7027439383944,-0.011890837954138395,3.6323140254126005,1.1692652851741934,-0.04759963666602822,1.7396614783250353,-1.4154182065160361,-0.15235658371988536,0.029645722112621075,-0.615496100794112,-0.016700671277972107
1631664083131746,153.7778773298861,-38.572840532586085,-0.015953070775298978,3.518060866277412,1.4342647346153352,-0.04164756345319808,1.7034809798665467,-1.3533359178607614,-0.11984510280807945,0.021347739784422348,-0.6259343007496091,-0.020821078637489457
1631664083231747,154.12142681702122,-38.41475440126995,-0.02049895174351342,3.345017516160868,1.7236325908617607,-0.04988630169019285,1.6817637890155033,-1.291237432862339,-0.09871586189496212,-0.03435053366388418,-0.6181977724251208,-0.005570805808875231
1631664083281747,154.28621308239977,-38.32517683103688,-0.023220017224818437,3.2497254669039335,1.851075133664022,-0.054242304611265044,1.6722113788375736,-1.2600876699669648,-0.0872526217175568,-0.05457859040600668,-0.6290936545880463,0.01023464551699195
1631664083431748,154.75561512789946,-38.02834459574849,-0.03443018498513807,3.0259287140186792,2.087014978116934,-0.08920073340651449,1.645930629911298,-1.1638342247776352,-0.059156278806212347,0.02318556094478267,-0.6583534811548573,0.017102453874206325
1631664083531749,155.05130065280898,-37.81104843469864,-0.043643128686294816,2.8795882968104496,2.2630098467974586,-0.0962873563255296,1.6357292704224748,-1.0976531694638256,-0.05125166703381392,-0.01708120108150404,-0.6659915862079859,-0.011515403835718026
1631664083631750,155.33076514737982,-37.57547974975984,-0.051932108132030017,2.7093903431628386,2.4397652277636843,-0.06510277194724115,1.6300920098750828,-1.0307832827314645,-0.047332512153682345,0.0057954217773687295,-0.6681364026110299,0.004487588663085267
1631664083731751,155.59192071235597,-37.32212144278211,-0.05929942115038969,2.5047977247086504,2.6321810060121322,-0.07551472467982458,1.627740484614421,-0.9631421299452465,-0.04827874026881766,0.04185779481001775,-0.6793759663439138,-0.033081351766857434
1631664083781751,155.71446230747875,-37.188190352000845,-0.06251862977419706,2.3928446555582186,2.7195021766900127,-0.06438895988128619,1.6266195330791695,-0.9292546400384782,-0.04749323310790825,-0.04115924273958121,-0.672168659315824,-0.025285372441051595
1631664083931752,156.04526367332326,-36.76348148596553,-0.07121350441687221,2.0272255061615114,2.9130548813784225,-0.05462578940726324,1.6225167108148113,-0.8282406299347005,-0.0424291150181795,-0.009686925969761707,-0.6696840084169055,-0.007172205232476652
1631664084031753,156.23700197308202,-36.467256423628385,-0.0759675540576637,1.8055509471347884,3.012910799104427,-0.040757049332340846,1.6176247586572776,-0.7601912863014879,-0.03917946473397197,-0.013439925838336832,-0.6949672405771932,0.017262587285292976
1631664084131754,156.40516266919107,-36.160826156545546,-0.08026565385763969,1.557652717253506,3.111065182100106,-0.04849052157798385,1.6129526971032062,-0.690667615039946,-0.03436936989448261,-0.029184964983329228,-0.695446783846361,-0.0035796677806115684
1631664084231755,156.54849936702252,-35.84488952879298,-0.08534044432628032,1.3038741861962906,3.2065346955046103,-0.051895055606769915,1.6100948904688765,-0.6212948454102947,-0.03230768273203805,0.008267704560148595,-0.6927207818622523,0.010099351446163484
1631664084331756,156.66550301495354,-35.52115407806157,-0.09237129747012895,1.0397778547394507,3.2638464225298973,-0.08410103024502631,1.6067364637178476,-0.5515018656757721,-0.028729342553139,0.0007750119771316981,-0.7021798182702809,0.0033521258920788397
1631664084381756,156.7145504878552,-35.35743411837468,-0.09656285537231556,0.9248209546978172,3.2848545908751765,-0.08343612565550725,1.6051980940932888,-0.5161343046577991,-0.02778369290809227,-0.034040457947237875,-0.7100564942782188,0.0035910544691802096
1631664084481757,156.7953574188171,-35.027061987449194,-0.1047731463351082,0.6981760871185674,3.3127220417426684,-0.07830867793454548,1.60301618117183,-0.44490290178571734,-0.025508948979989635,-0.015599223101657289,-0.7093568207162502,0.0010221005179403926
1631664084631758,156.87409474321197,-34.52796108002661,-0.11502312499794497,0.35645157987791354,3.3412255572493472,-0.06344019630037136,1.6001913442084268,-0.338564382019453,-0.02580988712276606,0.021075580955957456,-0.7061726913491481,-0.01022000590278735
1631664084731759,156.89608520333584,-34.19266131627368,-0.12085050627220097,0.07701509644777646,3.3607263662590716,-0.05282767201808579,1.6007049139824812,-0.267595146880889,-0.026447270868447694,-0.012906407452452645,-0.7038385776798806,-0.046274129758210075
1631664084831760,156.88975984905187,-33.85694320115171,-0.12455379530811983,-0.1946803641360146,3.3405353569572913,-0.027675775118524985,1.603499584228014,-0.1967569426766478,-0.024779531909801922,-0.006139935139289539,-0.7017675758727183,-0.041445393990447436
1631664084931761,156.85774450509015,-33.52620527394826,-0.1276825149069146,-0.43799518283495964,3.270833985300516,-0.04083190116461842,1.6055088199053755,-0.1261753590235953,-0.022301347772331722,-0.036045905100071225,-0.7054844242800061,-0.030520314613660036
1631664085031761,156.80382437426618,-33.202542531287676,-0.13284466833360398,-0.6392026790268749,3.2000108985437485,-0.06412230067405975,1.6057580104739189,-0.05589663925967327,-0.02005085257322794,-0.004822953588798922,-0.697297656972345,-0.011188142056060972
1631664085131762,156.72875365828165,-32.88649946578164,-0.1397323854137929,-0.8595690807396023,3.121030324786491,-0.06658351797706107,1.6052840042528171,0.013960515448054977,-0.018478474494153782,-0.02504160772292658,-0.6934028882218451,-0.001896785848317452
1631664085231763,156.63207923532116,-32.578627837647666,-0.14636584489811194,-1.0704604127965778,3.036529081382964,-0.06438206542686781,1.6047547817667047,0.08333709007392312,-0.016689257581778617,-0.019256821916753205,-0.6928224741534477,-0.013601904854738514
1631664085281764,156.57597163170018,-32.4278240764586,-0.14934037914542816,-1.1724810479191299,2.9927487395440893,-0.059059402572525864,1.6047444177848684,0.1179988111022897,-0.015922722333799263,-0.0231360291984805,-0.6953549120511565,-0.017879996156023314
1631664085431765,156.37975837016992,-31.98983807399213,-0.15669507895469695,-1.436158072287405,2.843720167345944,-0.0464468305620575,1.6053032632277549,0.22180869852457713,-0.014186077671778185,0.0006263380523109736,-0.6876981174018107,-0.016309448729453
1631664085531765,156.22793606416815,-31.710954551602857,-0.1613305638468881,-1.6008489588443426,2.729175184696582,-0.042081196719311556,1.6060751229138703,0.2902703544950323,-0.014602403634800308,0.019118786264407106,-0.6802725125162121,-0.011022177445068452
1631664085631766,156.05942715672865,-31.444889091785964,-0.16527576638974623,-1.768982269336009,2.5891015584984336,-0.038293292611182334,1.6062533254156617,0.35799377772406876,-0.015515155837316568,0.012670303518876162,-0.6672148517997606,-0.01647000694786403
1631664085731767,155.87332692373985,-31.193753994521042,-0.16838093806043755,-1.9459537890765062,2.432861501256018,-0.026351196334540625,1.6063591544579723,0.4253684937529271,-0.014915315797178409,-0.004940145322159817,-0.6718192213550792,-0.007883054210460804
1631664085831768,155.67122705119465,-30.95831992233676,-0.1710667064816568,-2.0959555154884746,2.2744428859342585,-0.029106706595134594,1.606198964516659,0.4917945504402697,-0.013807723337776032,-0.02647795997045522,-0.6597998835725745,-0.008699055040533058
1631664085931769,155.45455888124584,-30.73886925422229,-0.17403623732668375,-2.2331467524158275,2.116405943262536,-0.027960674477990072,1.6055707893298483,0.5565487304580025,-0.010873747720528763,-0.044983453151224026,-0.6343776351122048,0.008098148890335242
1631664085981769,155.34133922641558,-30.634988264977405,-0.17565839922182755,-2.2934812430957825,2.0401657096452994,-0.03397598057551896,1.6049027399353544,0.5879525505347791,-0.009116932568781964,-0.039667376192972725,-0.621376228715294,0.004476441663726564
1631664086131771,154.9863262711561,-30.343752314861856,-0.18036463532234737,-2.4277866156045307,1.8542422384985786,-0.024601868120549004,1.6035059908621303,0.6786818354953656,-0.003234670543929993,-0.04457061952459374,-0.5848845979050237,0.007348704378990012
1631664086231772,154.74007112007445,-30.16328652856719,-0.18313662033395472,-2.4897677869233457,1.7643946102175185,-0.03347886220320449,1.6030936558513509,0.736507906642871,5.275187792727127e-05,-0.021253247684454683,-0.5628396372564061,-0.003922319255177417
1631664086331773,154.48838132570384,-29.99057858721615,-0.1866365461009027,-2.5417057581145714,1.688530813800864,-0.03463033145709423,1.603516804039735,0.7909903549356042,0.0012045833829301337,-0.0013683771679825435,-0.5224748902396416,-0.0024124785211342434
1631664086431774,154.231770383462,-29.82571713248504,-0.18947969084683092,-2.588200267894985,1.6069827163211434,-0.028373387056700453,1.6035089377393215,0.8414776283863217,0.000663850516005908,0.01744448481522986,-0.4849177803298798,-0.0058916179183569695
1631664086531775,153.96923185789834,-29.670612459437454,-0.19130330268286191,-2.6689610442399485,1.4900074895786841,-0.007844968009284638,1.6029643316856985,0.8899309881410505,-0.001009308009585645,0.009442040227945224,-0.4836158230859645,0.014181338619016581
1631664086631776,153.69724211620326,-29.527527555117253,-0.19171676065923654,-2.7747642534126644,1.3780530649530087,-0.0018525535932749663,1.6003380777456668,0.9382883970828951,-0.0031484640822631907,0.003782557657764968,-0.4803632028287041,0.014880668480755845
1631664086731776,153.41295846111004,-29.395039698612983,-0.19196619248184832,-2.913451376375998,1.275707758900112,-0.002492063577681639,1.5970106751155868,0.9863300480855336,-0.005401182525777001,-0.027282255845024174,-0.470419478807931,0.02069368639401514
1631664086781777,153.26527200163807,-29.332504813652136,-0.19212683095533228,-2.989847941136852,1.2331608057179821,-0.004392662942027045,1.594762697259584,1.0098097955855887,-0.005932328796350917,-0.03409326258244604,-0.4623903074611739,0.0203853480123209
1631664086931778,152.80108294519314,-29.151591564147083,-0.19341725614917732,-3.192733824010258,1.191574812032719,-0.010677597738760295,1.5897998859002014,1.0778749170085917,-0.00886086078810352,0.011506795865032905,-0.447758727413213,0.013121978778197584
1631664087031779,152.4756705048256,-29.03322674988317,-0.19452411736593106,-3.3178077976688627,1.1665983457603368,-0.008041790969437827,1.5859607937599445,1.1214743304561936,-0.015147336950128331,0.030352157198911697,-0.4273362248118113,0.010117414887797847
1631664087131780,152.13688005267107,-28.920160784017583,-0.19425504431206708,-3.4600971102486806,1.088401712698998,0.013864146997585716,1.5811754706679007,1.163149768147106,-0.022919940747338347,0.017872772378736246,-0.4074615034962493,0.011854858943903618
1631664087231781,151.7836082949567,-28.815962584217512,-0.19243948652586979,-3.6034282706261727,0.9931837749293713,0.022854519829471225,1.5778297103393217,1.202099748480762,-0.02780796191887802,0.008954650587708364,-0.37410041239380604,-0.0008103143474587571
1631664087331781,151.41643707224046,-28.721352307513325,-0.1900933775780293,-3.7376101361329575,0.904394501785256,0.023171199384604563,1.5749372785386888,1.2379548960087283,-0.02987303375684419,-0.016149363990729287,-0.34179829319408267,-0.00020787313852628823
1631664087431782,151.03625624404359,-28.634818506106292,-0.18791174710248032,-3.865364354609489,0.8281240745048681,0.021357095056166685,1.5727040052762584,1.270076397450881,-0.02939540009484695,-0.0470101163088145,-0.3048472651230961,-0.002516618004309209
1631664087531783,150.64407142446348,-28.553514161642028,-0.18609847131929008,-3.9767305479248694,0.8068731473408883,0.018851798055087417,1.5722642136752574,1.298421570398241,-0.02594705654730556,-0.0165988722301788,-0.26601701909847913,-0.005279231336026413
1631664087631784,150.24109952858424,-28.471653972932323,-0.1845196503501661,-4.085408260395268,0.8333781736645689,0.012491094340185695,1.573879999997089,1.3231760132316908,-0.02309225973906166,0.00307551566778937,-0.23128738650401287,-0.016962021107584338
1631664087731785,149.82675891031462,-28.387291805126807,-0.1833507897154576,-4.201620841149762,0.837803282861013,0.008057387641512983,1.5825656509010844,1.3436881225049655,-0.015338401933138106,0.0014121721892355985,-0.17992272384250765,-0.036117432652571044
1631664087831786,149.40082440959534,-28.30532404454597,-0.18236702851518846,-4.314282696465221,0.7959603692821596,0.00954243281153759,1.5937042201200478,1.3594198492092422,-0.003874824728784124,-0.004774226199471807,-0.13576732617695791,-0.01859082373549927
1631664087931786,148.96427058494308,-28.228253268895454,-0.1812832057681361,-4.4144456137165315,0.7592070717887558,0.015852716985886695,1.6017644249513412,1.3720573924199198,0.008495615165006676,-0.04960218589583204,-0.10548474547631426,-0.013902279453821869
1631664087981787,148.74217999171952,-28.19048479641693,-0.18012726972244752,-4.468947940656675,0.7536952031449047,0.030659427571414374,1.6046565797943066,1.3769729937893496,0.013898595575290494,-0.05393421793691886,-0.08585771876942756,-0.00486785999948495
1631664088081788,148.29061410048752,-28.114162265465747,-0.1768822005920457,-4.556684638754033,0.7962203670548522,0.03502433125744836,1.6103603708639338,1.3839868803563182,0.027000090658022974,-0.03703659726193544,-0.05137105322766702,-8.215159440322161e-05
1631664088231789,147.60031939412752,-27.984482656529018,-0.17168545461200416,-4.652861107183856,0.9104065711950878,0.036336547621500896,1.6015035019891322,1.389616547848253,0.019329335217189894,0.02893805126795974,-0.03353629456520794,0.03089192059759661
1631664088331790,147.13112676292386,-27.890955056047446,-0.16824647556519534,-4.739160324563438,0.9448634756312734,0.032750794942527355,1.5796765003201185,1.3931881745457664,-0.003816309813966043,0.059240123712725946,-0.033489252611743375,0.05220676123777604
1631664088381790,146.89290186405157,-27.843950993797165,-0.16693567879488974,-4.791414322755131,0.9317905355506094,0.020562804222328583,1.5665469934992255,1.3947041328904102,-0.01879480664411754,-0.004806857981004958,-0.026052160570245547,0.03664763215078028
1631664088531791,146.1586717613543,-27.71012011079994,-0.16252300329086428,-4.999773079547384,0.8661469320284152,0.03887665627918404,1.5357951276201058,1.3966050080183925,-0.0456780447759436,-0.03807550980159595,0.005349235628083742,0.024390508072950942
1631664088631792,145.65241484424828,-27.6216362618846,-0.15856386313160128,-5.1209269931663925,0.9259031127425047,0.043254861548817344,1.5322328035614572,1.3956122896269625,-0.04263105413337746,-0.01832397654824103,0.019928132904843854,-0.01089291747932111
1631664088731793,145.13492959977464,-27.522396671585955,-0.15374798772031226,-5.228460143985804,1.058418694807241,0.058308901641424604,1.5456203885393436,1.392896666092178,-0.026623882898616693,0.007790197381941064,0.0414681941649105,-0.017009217458245726
1631664088831794,144.608034777967,-27.409448205387747,-0.14877795778646583,-5.306245894564213,1.1889998105950828,0.04130793415354934,1.5670329492847466,1.387153888131393,-0.007030722059835602,0.03938435146789787,0.07277705077558341,-0.05042223912306019
1631664088931795,144.07381312028454,-27.28630184181912,-0.14344466716844276,-5.375603943322137,1.2673627810911952,0.06319628281527342,1.5829013963632643,1.3797345900329503,0.005540694421333199,0.03293426259235529,0.07850537521557518,-0.009732421465008818
1631664089031795,143.53334154217836,-27.156082366467157,-0.13749985633472478,-5.437838919431439,1.3327263367744526,0.05562810177884376,1.584845075415821,1.3714866533949401,0.005140782840798321,0.023453418910695457,0.08168693591673354,0.004231817254523996
1631664089081796,143.26058972730868,-27.08829464836018,-0.1348775162160657,-5.474894548495738,1.3740296681336042,0.0511569543859633,1.5831522465298704,1.3668056431608386,0.002679866779207076,0.026551929417412558,0.0997991746144451,0.01195934583804505
1631664089181797,142.70928593414064,-26.94676446040162,-0.13076397045798785,-5.551399341313824,1.4546572186821318,0.03186834264885908,1.5793587241903002,1.35608710655372,-0.00287085328635085,0.0178234353783168,0.11097388678507349,0.009227581558762037
1631664089331798,141.8685316312018,-26.71808652887942,-0.1268738383434057,-5.661329244589714,1.5960668306237384,0.03699094554713548,1.5692319658994207,1.3382951375182341,-0.013669858955624635,0.002614135874499146,0.1259551910159324,0.025175627192244754
1631664089431799,141.2988273767937,-26.55365205977204,-0.1223737269548145,-5.733172859612071,1.7013100698326649,0.05494294975592667,1.5651419210113462,1.3259240675792525,-0.01847288381355557,0.01638031397360954,0.12883773314769884,0.0039231443356455694
1631664089481799,141.01124140476068,-26.467071316576707,-0.11939682506644861,-5.768904392503729,1.7626216604010367,0.055155324484132254,1.5644285951659147,1.3194206774631594,-0.01959565954513947,0.017010518735575447,0.1342355535955422,-0.003954920256048074
1631664089631800,140.13764131396667,-26.190610127205513,-0.11101754174832758,-5.873119463313807,1.928018051004898,0.05053570216683192,1.5640816368077308,1.2985580022123393,-0.020787161986575275,0.004700124252378286,0.1478951282228933,0.0050640404735417125
1631664089731801,139.5478111171833,-25.991159139899146,-0.10596536169583293,-5.922454707084165,2.0600382467467817,0.05028252032572545,1.5626780351008156,1.2828712926788153,-0.02294658253954335,0.001163272930993842,0.16105323778211839,0.00234837296045926
1631664089831802,138.9529529044383,-25.77767506879534,-0.1001897779807734,-5.97559476980395,2.2124172453266127,0.06089294658834195,1.5632891141944927,1.2660734651428203,-0.02332055581860847,0.011834978601535304,0.17244994577919487,-0.003302327205369695
1631664089931803,138.35285340534347,-25.54910766548945,-0.09449352656809429,-6.02368759064738,2.3569288774024915,0.04685550559318034,1.5663403341793016,1.2485615863933628,-0.022373362037843198,0.0029503420696009117,0.1789215593714725,-0.011923554353979644
1631664090031804,137.74796448833857,-25.307394685865393,-0.09019020868798146,-6.071538255544413,2.4853774670256685,0.038029184016644214,1.5706704718710438,1.2308921210939903,-0.019005814154801053,-0.013756889026693912,0.17799315573261074,-0.01423981847334145
1631664090081804,137.4437418101554,-25.181646484319888,-0.08831394940168241,-6.095718311268134,2.54307045503157,0.03325901035299334,1.5730185770766885,1.2220757430238993,-0.017373759315004463,0.0273898020950041,0.17279415899856806,-0.02103081995797791
1631664090231805,136.52378334527543,-24.78474153351939,-0.08296910168346164,-6.165996734527495,2.7531922367450283,0.024608502342581457,1.583040695290656,1.1955899970776227,-0.007056763912013003,0.0007274025748398698,0.17818666914053088,-0.030073600712479356
1631664090331806,135.90690596868174,-24.501072158939234,-0.08100187987578217,-6.165654633050116,2.91973366050019,0.014004269676864042,1.589475849606036,1.1773218827790044,-0.001576655642263492,0.010529840654457187,0.18534825594329854,-0.0206984868897043
1631664090431807,135.29096265755697,-24.20075332899383,-0.07920806736056307,-6.154877658190026,3.0825000668373734,0.020516962583494027,1.590692174616281,1.1584086428719196,-0.0017640596612695742,0.021589726808389584,0.1900452469897525,0.008844692968793113
1631664090531808,134.67554285590793,-23.884388641087988,-0.0775518317356988,-6.1558898546597405,3.241662340404158,0.0067891129072670045,1.588102248178751,1.1382877937943932,-0.005820747976907488,0.022577737484059418,0.21148218527958695,0.00788224039820073
1631664090631809,134.0594095090475,-23.5524186722349,-0.07707451740710765,-6.166415961522305,3.4011038181285125,0.0076985051570789284,1.5843841079161098,1.1170376551162104,-0.010673327848357153,0.007217592283590765,0.21475198954632982,0.025962799046767106
1631664090731809,133.4426624467963,-23.204372262906546,-0.07641831390090882,-6.164933660680948,3.565135574150977,0.012787554155943993,1.5838177056450096,1.0958606810484919,-0.010622182505780767,-0.03530209798094617,0.2059962849670164,-0.007629921488535673
1631664090781810,133.1345327829408,-23.02404973071023,-0.07555047507222046,-6.1588945161316415,3.652190241112507,0.027212495888333195,1.584452181534538,1.0852900345488503,-0.010453536939874327,0.013628256470887702,0.21932678179738768,0.008654069181011992
1631664090931811,132.2125906612917,-22.45690529144725,-0.07310267366365758,-6.126078349669283,3.9256887076293965,-0.0012057738736163503,1.5864953303902618,1.0526759789045914,-0.007408226882099543,0.019018775836899097,0.21498375012418566,-0.011304619444892826
1631664091031813,131.60209218051892,-22.05717202495489,-0.07306477234072975,-6.07632949929845,4.082243689206497,0.01410351632900065,1.5881427949666345,1.0312934524907549,-0.00670464221405311,-0.10407032898437159,0.20820682768591497,0.003095417654014652
1631664091131814,130.99667497433984,-21.63917459757025,-0.07315290803112655,-6.031659355834537,4.275283986192173,0.012716874756342091,1.590130025009412,1.0095562887396488,-0.011769000267264037,0.013650367364661796,0.22480078310691035,0.01692776017929668
1631664091231815,130.39554405191782,-21.20750193765366,-0.07360380097108918,-5.975032631690792,4.379199971924538,-0.004420390762576109,1.5927391169677565,0.9881942906127618,-0.00969466377748162,-0.0552891927111039,0.21535776164512865,-0.009034149173036608
1631664091331815,129.80053449536481,-20.763353297844734,-0.07235606373791224,-5.9295541830191585,4.514397912654231,0.02099120475107948,1.587543781643072,0.967106275671498,-0.014574950910753798,-0.007019783759344213,0.21797209078344787,0.029766221312737904
1631664091431816,129.20955058845192,-20.303908533671294,-0.07094589324720535,-5.877732449674981,4.678866629318381,0.0017453854826885115,1.5885275585509202,0.945577456466722,-0.012797873571828931,-0.004594035521763307,0.20925302686730493,-0.0015399642753000035
1631664091531817,128.62663015930724,-19.826985521119173,-0.07303669512874325,-5.7850514875068475,4.854870910841569,-0.03429496360311511,1.5908542473640326,0.9248763076119322,-0.011403987168905793,0.09964485887685236,0.20720204843489465,-0.026890947936488843
1631664091631818,128.0539452231851,-19.333313347689437,-0.07696518209197895,-5.679572369590743,4.993494179568744,-0.03383403149328065,1.598659050027923,0.9036969028343151,-0.010399094329488838,0.0658657737962773,0.21326154570628328,-0.048583280023657575
1631664091731819,127.49104874850167,-18.8300902241716,-0.07947493518634258,-5.578837238054029,5.058613263138961,-0.013055167434112,1.603538201183408,0.8820705479188067,-0.008122795389899056,-0.005438628662391668,0.21573010479086446,0.0029921566701869044
1631664091831819,126.93927977884363,-18.32223861386588,-0.08020899178106505,-5.454735404068541,5.105598993527252,-0.00408822327047193,1.5996282111600977,0.8604334720204111,-0.009066628560372013,-0.04955346912525084,0.21344115570772998,0.04689195419640476
1631664091931820,126.40019365416568,-17.805838544391726,-0.08026858421613624,-5.3196437937241114,5.237012813611568,-0.003138946475037089,1.590186562510129,0.8391781594641194,-0.0137510526654225,-0.007532163628179899,0.20938973154042753,0.06765970045286031
1631664092031821,125.8752012893767,-17.274255537651392,-0.08006502098115997,-5.187938133783279,5.385512177650018,0.01288037237819581,1.5815168733085068,0.818178836290513,-0.022261852565906886,0.036033367591357904,0.20304661491238968,0.052449845172008625
1631664092131822,125.36116123469152,-16.7294807701527,-0.07696844904808003,-5.105761368595996,5.502826192686068,0.04534066492435508,1.5769112033396515,0.7979155417357136,-0.028139584123646234,0.033142281449589514,0.1939581220039276,0.014431549044907808
1631664092231823,124.85414329471587,-16.173182113082476,-0.07213937172474097,-5.027347082820001,5.612056396903426,0.039942691072504866,1.5787533103008802,0.7782896567448276,-0.028685356943843967,0.01817180454755943,0.20093061080052366,-0.03388721577829648
1631664092331823,124.35563975686095,-15.609572764125442,-0.06713137801230588,-4.928536877182212,5.660378894468322,0.039836304466841686,1.5824849941523569,0.7598075094779377,-0.026696536530792132,-0.014375490572728602,0.18198889627628081,-0.038056895863069706
1631664092431824,123.8686755130909,-15.039095518634248,-0.062011256148871124,-4.808993905645496,5.7454560640562855,0.03922392318310466,1.5843574097823836,0.7420490702790188,-0.025890864972154603,0.032480037462355976,0.17535248810310622,-0.013638622025049157
1631664092531825,123.39490545489554,-14.461209208748821,-0.0596276868294729,-4.666339051106719,5.806504810226898,0.01265719015654859,1.5870848055322295,0.7236887443511114,-0.025886164522335997,0.00852243626501288,0.18221200535563864,-0.0003309736885097707
1631664092631826,122.93562056481349,-13.878089379879752,-0.05844084840675215,-4.5274410685143245,5.8465318715712975,0.014195848456505662,1.5860329710564052,0.7058609267878416,-0.02985442054232963,0.02265739298205714,0.1739140135751693,0.00565408683250563
1631664092731827,122.48736610531925,-13.29251136240869,-0.05375642812056439,-4.437547396526168,5.863684917492135,0.06416406420844716,1.5834932718411405,0.6896012268200422,-0.032679786163266916,-0.0014785604687381224,0.15882923818903485,0.03613954176132968
1631664092831828,122.0475116919383,-12.70579440443021,-0.04695497627767637,-4.352100125865142,5.880183255730097,0.06575746656358104,1.5786304916412233,0.6744364100810009,-0.03378212443597668,-0.03193609632056121,0.1513531127909096,0.044896443084991036
1631664092931828,121.61791459206415,-12.114868832626222,-0.041115628148610424,-4.234346128009655,5.948500296477632,0.048667736073602696,1.5743881159730404,0.659243120551028,-0.03487895862650727,-0.0029955020857765535,0.1544710982841763,0.017864262042225226
1631664093031829,121.19941580556754,-11.51533221156288,-0.03549736008600787,-4.1371256498305735,6.041133272771756,0.0600722483172032,1.573799670026219,0.6437832864415708,-0.035728319375455356,0.016101876225217575,0.1577604076589641,-0.003087261699556358
1631664093131830,120.78980682041525,-10.907779872175455,-0.030474538930241518,-4.058069944436689,6.103858694578141,0.039236888451336556,1.5782186389923196,0.6279810753861418,-0.034116027589845624,0.00844095453917867,0.15792875571250878,-0.0524158606418388
1631664093181831,120.58782993580431,-10.602146078598823,-0.028529599848998402,-4.018764220995899,6.120577402966655,0.03861707476573313,1.5815820112823051,0.6201740101479336,-0.03302638199440637,-0.005604257919357457,0.15475442926674893,-0.04666775887516183
